[
  {
    "id": 5,
    "nom": "Terrain Al qorb - Casablanca",
    "type": "Football",
    "ville": "Casablanca",
    "prix": "180 MAD/h",
    "capacity": "10 joueurs",
    "surface": "Gazon synthétique",
    "image": "https://images.unsplash.com/photo-1518604666860-9ed391f76460?w=400&h=250&fit=crop",
    "lat": 34.0209,
    "lng": -6.8416
  },
  {
    "id": 7,
    "nom": "Terrain Al Fath - Rabat",
    "type": "Football",
    "ville": "Rabat",
    "prix": "180 MAD/h",
    "capacity": "22 joueurs",
    "surface": "Gazon synthétique",
    "image": "https://images.unsplash.com/photo-1518604666860-9ed391f76460?w=400&h=250&fit=crop",
    "lat": 34.0209,
    "lng": -6.8416
  },
  {
    "id": 8,
    "nom": "Complexe Sportif Hassan II - Rabat",
    "type": "Football",
    "ville": "Rabat",
    "prix": "220 MAD/h",
    "capacity": "22 joueurs",
    "surface": "Gazon naturel",
    "image": "https://images.unsplash.com/photo-1574629810360-7efbbe195018?w=400&h=250&fit=crop",
    "lat": 34.0132,
    "lng": -6.8326
  },
  {
    "id": 9,
    "nom": "Terrain Agdal Sport - Rabat",
    "type": "Football",
    "ville": "Rabat",
    "prix": "150 MAD/h",
    "capacity": "14 joueurs",
    "surface": "Gazon synthétique",
    "image": "https://images.unsplash.com/photo-1529900748604-07564a03e7a6?w=400&h=250&fit=crop",
    "lat": 33.9999,
    "lng": -6.8504
  },
  {
    "id": 10,
    "nom": "Stade Moulay Abdallah - Rabat",
    "type": "Football",
    "ville": "Rabat",
    "prix": "300 MAD/h",
    "capacity": "22 joueurs",
    "surface": "Gazon naturel",
    "image": "https://images.unsplash.com/photo-1487466365202-1afdb86c764e?w=400&h=250&fit=crop",
    "lat": 33.9826,
    "lng": -6.8796
  },
  {
    "id": 12,
    "nom": "Complexe Sportif de Fès",
    "type": "Football",
    "ville": "Fès",
    "prix": "200 MAD/h",
    "capacity": "22 joueurs",
    "surface": "Gazon naturel",
    "image": "https://images.unsplash.com/photo-1574629810360-7efbbe195018?w=400&h=250&fit=crop",
    "lat": 34.0455,
    "lng": -5.0003
  },
  {
    "id": 13,
    "nom": "Terrain Saiss - Fès",
    "type": "Football",
    "ville": "Fès",
    "prix": "160 MAD/h",
    "capacity": "22 joueurs",
    "surface": "Gazon synthétique",
    "image": "https://images.unsplash.com/photo-1529900748604-07564a03e7a6?w=400&h=250&fit=crop",
    "lat": 34.0331,
    "lng": -5.0117
  },
  {
    "id": 14,
    "nom": "Terrain Oued Fès Sport",
    "type": "Football",
    "ville": "Fès",
    "prix": "140 MAD/h",
    "capacity": "14 joueurs",
    "surface": "Sable",
    "image": "https://images.unsplash.com/photo-1518604666860-9ed391f76460?w=400&h=250&fit=crop",
    "lat": 34.0509,
    "lng": -4.9849
  },
  {
    "id": 15,
    "nom": "Terrain Guéliz - Marrakech",
    "type": "Football",
    "ville": "Marrakech",
    "prix": "180 MAD/h",
    "capacity": "14 joueurs",
    "surface": "Gazon synthétique",
    "image": "https://images.unsplash.com/photo-1487466365202-1afdb86c764e?w=400&h=250&fit=crop",
    "lat": 31.632,
    "lng": -8.012
  },
  {
    "id": 16,
    "nom": "Complexe Al Amal - Marrakech",
    "type": "Football",
    "ville": "Marrakech",
    "prix": "250 MAD/h",
    "capacity": "22 joueurs",
    "surface": "Gazon naturel",
    "image": "https://images.unsplash.com/photo-1574629810360-7efbbe195018?w=400&h=250&fit=crop",
    "lat": 31.6258,
    "lng": -7.9811
  },
  {
    "id": 17,
    "nom": "Stade El Harti - Marrakech",
    "type": "Football",
    "ville": "Marrakech",
    "prix": "280 MAD/h",
    "capacity": "22 joueurs",
    "surface": "Gazon naturel",
    "image": "https://images.unsplash.com/photo-1459865264687-287d4539c1ac?w=400&h=250&fit=crop",
    "lat": 31.6369,
    "lng": -7.9956
  },
  {
    "id": 18,
    "nom": "Terrain Hivernage Sport - Marrakech",
    "type": "Football",
    "ville": "Marrakech",
    "prix": "200 MAD/h",
    "capacity": "14 joueurs",
    "surface": "Gazon synthétique",
    "image": "https://images.unsplash.com/photo-1529900748604-07564a03e7a6?w=400&h=250&fit=crop",
    "lat": 31.6187,
    "lng": -8.0065
  },
  {
    "id": 19,
    "nom": "Terrain Beni Makada - Tanger",
    "type": "Football",
    "ville": "Tanger",
    "prix": "150 MAD/h",
    "capacity": "14 joueurs",
    "surface": "Gazon synthétique",
    "image": "https://images.unsplash.com/photo-1518604666860-9ed391f76460?w=400&h=250&fit=crop",
    "lat": 35.756,
    "lng": -5.833
  },
  {
    "id": 20,
    "nom": "Complexe Sportif Ibn Batouta - Tanger",
    "type": "Football",
    "ville": "Tanger",
    "prix": "220 MAD/h",
    "capacity": "22 joueurs",
    "surface": "Gazon naturel",
    "image": "https://images.unsplash.com/photo-1574629810360-7efbbe195018?w=400&h=250&fit=crop",
    "lat": 35.7257,
    "lng": -5.901
  },
  {
    "id": 21,
    "nom": "Terrain Malabata - Tanger",
    "type": "Football",
    "ville": "Tanger",
    "prix": "170 MAD/h",
    "capacity": "22 joueurs",
    "surface": "Gazon synthétique",
    "image": "https://images.unsplash.com/photo-1487466365202-1afdb86c764e?w=400&h=250&fit=crop",
    "lat": 35.7895,
    "lng": -5.781
  },
  {
    "id": 22,
    "nom": "Stade Marchan - Tanger",
    "type": "Football",
    "ville": "Tanger",
    "prix": "190 MAD/h",
    "capacity": "22 joueurs",
    "surface": "Gazon naturel",
    "image": "https://images.unsplash.com/photo-1529900748604-07564a03e7a6?w=400&h=250&fit=crop",
    "lat": 35.772,
    "lng": -5.814
  },
  {
    "id": 23,
    "nom": "Derb tazi",
    "type": "Football",
    "ville": "Casablanca",
    "prix": "undefined MAD/h",
    "capacity": "undefined joueurs",
    "surface": "Gazon",
    "image": "https://images.unsplash.com/photo-1459865264687-287d4539c1ac?w=400&h=250&fit=crop",
    "lat": 33.6051763,
    "lng": -7.6268629
  }
]